[
  {
    "type": "node",
    "id": 5297486622,
    "lat": 41.3209407,
    "lon": 19.7935877,
    "tags": {
      "bus": "yes",
      "source": "bing;mapbox-satellite;survey;knowledge;local-info;gps-track",
      "source_ref:url": "https://www.flickr.com/photos/openstreetmap-albania/",
      "tactile_paving": "no"
    }
  },
  {
    "type": "node",
    "id": 5297486623,
    "lat": 41.3209033,
    "lon": 19.7935652,
    "tags": {
      "bench": "yes",
      "bin": "no",
      "bus": "yes",
      "covered": "yes",
      "highway": "bus_stop",
      "lit": "yes",
      "name": "Pallati me Shigjeta",
      "network": "Tirana Bus",
      "operator": "Bashkia Tiran\u00eb",
      "public_transport": "platform",
      "tactile_paving": "no"
    }
  },
  {
    "type": "node",
    "id": 5297486621,
    "lat": 41.3204036,
    "lon": 19.7996841,
    "tags": {
      "bus": "yes",
      "source": "bing;mapbox-satellite;survey;knowledge;local-info;gps-track",
      "source_ref:url": "https://www.flickr.com/photos/openstreetmap-albania/",
      "tactile_paving": "no"
    }
  },
  {
    "type": "node",
    "id": 2617225973,
    "lat": 41.3203544,
    "lon": 19.7996994,
    "tags": {
      "bus": "yes",
      "highway": "bus_stop",
      "name": "Selit\u00eb",
      "network": "Tirana Bus",
      "operator": "Bashkia Tiran\u00eb",
      "public_transport": "platform",
      "tactile_paving": "no",
      "wheelchair": "no"
    }
  },
  {
    "type": "node",
    "id": 5420313248,
    "lat": 41.3209382,
    "lon": 19.8030401,
    "tags": {
      "bus": "yes",
      "source": "bing;mapbox-satellite;survey;knowledge;local-info;gps-track",
      "source_ref:url": "https://www.flickr.com/photos/openstreetmap-albania/",
      "tactile_paving": "no"
    }
  },
  {
    "type": "node",
    "id": 5297483620,
    "lat": 41.3208903,
    "lon": 19.803056,
    "tags": {
      "bus": "yes",
      "email": "info@tirana.al;konsumatori@tirana.gov.al",
      "highway": "bus_stop",
      "name": "Gjeologji Miniera",
      "opening_hours": "Nov-Dec,Jan-Mar 05:30-23:30; Apr-Oct Mo-Sa 05:00-24:00; Apr-Oct Su 05:00-24:00",
      "operator": "Bashkia Tiran\u00eb",
      "phone": "0800 0888;04 227 4774",
      "public_transport": "platform",
      "tactile_paving": "no",
      "website": "https://www.tirana.al/pikat-e-interesit/linjat-urbane;http://mbrojtjakonsumatorit.al"
    }
  },
  {
    "type": "node",
    "id": 5297483618,
    "lat": 41.3207925,
    "lon": 19.8055822,
    "tags": {
      "bus": "yes",
      "source": "bing;mapbox-satellite;survey;knowledge;local-info;gps-track",
      "source_ref:url": "https://www.flickr.com/photos/openstreetmap-albania/",
      "tactile_paving": "no"
    }
  },
  {
    "type": "node",
    "id": 2619376950,
    "lat": 41.3207672,
    "lon": 19.8055091,
    "tags": {
      "bench": "yes",
      "bin": "no",
      "bus": "yes",
      "covered": "yes",
      "highway": "bus_stop",
      "lit": "yes",
      "name": "Vasil Shanto",
      "network": "Tirana Bus",
      "operator": "Bashkia Tiran\u00eb",
      "public_transport": "platform",
      "shelter": "yes",
      "tactile_paving": "no",
      "wheelchair": "no"
    }
  },
  {
    "type": "node",
    "id": 5297483617,
    "lat": 41.3187995,
    "lon": 19.8083934,
    "tags": {
      "bus": "yes",
      "source": "bing;mapbox-satellite;survey;knowledge;local-info;gps-track",
      "source_ref:url": "https://www.flickr.com/photos/openstreetmap-albania/",
      "tactile_paving": "no"
    }
  },
  {
    "type": "node",
    "id": 2619377176,
    "lat": 41.3187526,
    "lon": 19.8083785,
    "tags": {
      "bench": "yes",
      "bin": "yes",
      "bus": "yes",
      "covered": "yes",
      "highway": "bus_stop",
      "lit": "yes",
      "name": "Komuna Parisit",
      "network": "Tirana Bus",
      "operator": "Bashkia Tiran\u00eb",
      "public_transport": "platform",
      "shelter": "yes",
      "tactile_paving": "no",
      "wheelchair": "no"
    }
  },
  {
    "type": "node",
    "id": 5297403666,
    "lat": 41.318171,
    "lon": 19.813469,
    "tags": {
      "bus": "yes",
      "source": "bing;mapbox-satellite;survey;knowledge;local-info;gps-track",
      "source_ref:url": "https://www.flickr.com/photos/openstreetmap-albania/",
      "tactile_paving": "no"
    }
  },
  {
    "type": "node",
    "id": 4391562468,
    "lat": 41.3181374,
    "lon": 19.8134784,
    "tags": {
      "bench": "yes",
      "bin": "no",
      "bus": "yes",
      "covered": "yes",
      "highway": "bus_stop",
      "lit": "yes",
      "name": "Posta 8",
      "network": "Tirana Bus",
      "operator": "Bashkia Tiran\u00eb",
      "public_transport": "platform",
      "shelter": "yes",
      "tactile_paving": "no"
    }
  },
  {
    "type": "node",
    "id": 5297403665,
    "lat": 41.3192214,
    "lon": 19.8182414,
    "tags": {
      "bus": "yes",
      "source": "bing;mapbox-satellite;survey;knowledge;local-info;gps-track;",
      "source_ref:url": "https://www.flickr.com/photos/openstreetmap-albania/",
      "tactile_paving": "no"
    }
  },
  {
    "type": "node",
    "id": 3983803723,
    "lat": 41.319165,
    "lon": 19.8182363,
    "tags": {
      "bench": "yes",
      "bin": "no",
      "bus": "yes",
      "covered": "yes",
      "highway": "bus_stop",
      "lit": "yes",
      "name": "Libri Universitar",
      "network": "Tirana Bus",
      "operator": "Bashkia Tiran\u00eb",
      "public_transport": "platform",
      "tactile_paving": "no"
    }
  },
  {
    "type": "node",
    "id": 5297403664,
    "lat": 41.3179712,
    "lon": 19.8216192,
    "tags": {
      "bus": "yes",
      "source": "bing;mapbox-satellite;survey;knowledge;local-info;gps-track;",
      "source_ref:url": "https://www.flickr.com/photos/openstreetmap-albania/",
      "tactile_paving": "no"
    }
  },
  {
    "type": "node",
    "id": 588878901,
    "lat": 41.3180101,
    "lon": 19.8217906,
    "tags": {
      "bench": "yes",
      "bus": "yes",
      "covered": "yes",
      "highway": "bus_stop",
      "name": "Rektorati",
      "network": "Tirana Bus",
      "operator": "Bashkia Tiran\u00eb",
      "public_transport": "platform",
      "shelter": "yes",
      "tactile_paving": "no",
      "wheelchair": "limited"
    }
  },
  {
    "type": "node",
    "id": 3983790103,
    "lat": 41.322835,
    "lon": 19.8200981,
    "tags": {
      "bench": "yes",
      "bin": "no",
      "bus": "yes",
      "covered": "yes",
      "highway": "bus_stop",
      "lit": "yes",
      "name": "Piramida",
      "network": "Tirana Bus",
      "operator": "Bashkia Tiran\u00eb",
      "public_transport": "platform",
      "shelter": "yes",
      "tactile_paving": "no"
    }
  },
  {
    "type": "node",
    "id": 5297403661,
    "lat": 41.3304805,
    "lon": 19.8190444,
    "tags": {
      "bus": "yes",
      "source": "bing;mapbox-satellite;survey;knowledge;local-info;gps-track",
      "source_ref:url": "https://www.flickr.com/photos/openstreetmap-albania/",
      "tactile_paving": "no"
    }
  },
  {
    "type": "node",
    "id": 5297403662,
    "lat": 41.3305685,
    "lon": 19.8190006,
    "tags": {
      "bench": "yes",
      "bin": "yes",
      "bus": "yes",
      "covered": "yes",
      "email": "info@tirana.al;konsumatori@tirana.gov.al",
      "highway": "bus_stop",
      "lit": "yes",
      "name": "15 Kat\u00ebshi",
      "opening_hours": "Nov-Dec,Jan-Mar 05:30-23:30; Apr-Oct Mo-Sa 05:00-24:00; Apr-Oct Su 05:00-24:00",
      "operator": "Bashkia Tiran\u00eb",
      "phone": "0800 0888;04 227 4774",
      "public_transport": "platform",
      "tactile_paving": "no",
      "website": "https://www.tirana.al/pikat-e-interesit/linjat-urbane;http://mbrojtjakonsumatorit.al"
    }
  },
  {
    "type": "node",
    "id": 5297403659,
    "lat": 41.3347205,
    "lon": 19.8167212,
    "tags": {
      "bus": "yes",
      "source": "bing;mapbox-satellite;survey;knowledge;local-info;gps-track",
      "source_ref:url": "https://www.flickr.com/photos/openstreetmap-albania/",
      "tactile_paving": "no"
    }
  },
  {
    "type": "node",
    "id": 5297403660,
    "lat": 41.3347241,
    "lon": 19.8168028,
    "tags": {
      "bench": "yes",
      "bus": "yes",
      "covered": "yes",
      "highway": "bus_stop",
      "name": "Materniteti",
      "network": "Tirana Bus",
      "operator": "Bashkia Tiran\u00eb",
      "public_transport": "platform",
      "tactile_paving": "no"
    }
  },
  {
    "type": "node",
    "id": 5297403658,
    "lat": 41.3350921,
    "lon": 19.8108346,
    "tags": {
      "bus": "yes",
      "source": "bing;mapbox-satellite;survey;knowledge;local-info;gps-track",
      "source_ref:url": "https://www.flickr.com/photos/openstreetmap-albania/",
      "tactile_paving": "no"
    }
  },
  {
    "type": "node",
    "id": 4668094755,
    "lat": 41.3351406,
    "lon": 19.8108219,
    "tags": {
      "bench": "yes",
      "bin": "yes",
      "bus": "yes",
      "covered": "yes",
      "highway": "bus_stop",
      "lit": "yes",
      "name": "Harry Fultz",
      "network": "Tirana Bus",
      "operator": "Bashkia Tiran\u00eb",
      "public_transport": "platform",
      "tactile_paving": "no",
      "wheelchair": "yes"
    }
  },
  {
    "type": "node",
    "id": 5297403656,
    "lat": 41.3345921,
    "lon": 19.8078289,
    "tags": {
      "bus": "yes",
      "source": "bing;mapbox-satellite;survey;knowledge;local-info;gps-track",
      "source_ref:url": "https://www.flickr.com/photos/openstreetmap-albania/",
      "tactile_paving": "no"
    }
  },
  {
    "type": "node",
    "id": 5297403657,
    "lat": 41.3346263,
    "lon": 19.8078126,
    "tags": {
      "bench": "yes",
      "bin": "yes",
      "bus": "yes",
      "highway": "bus_stop",
      "lit": "yes",
      "name": "Don Bosko",
      "network": "Tirana Bus",
      "operator": "Bashkia Tiran\u00eb",
      "public_transport": "platform",
      "shelter": "yes",
      "tactile_paving": "no"
    }
  },
  {
    "type": "node",
    "id": 5297403655,
    "lat": 41.3340922,
    "lon": 19.8015083,
    "tags": {
      "bus": "yes",
      "source": "bing;mapbox-satellite;survey;knowledge;local-info;gps-track",
      "source_ref:url": "https://www.flickr.com/photos/openstreetmap-albania/",
      "tactile_paving": "no"
    }
  },
  {
    "type": "node",
    "id": 4643857693,
    "lat": 41.3341493,
    "lon": 19.8015606,
    "tags": {
      "bench": "yes",
      "bin": "no",
      "bus": "yes",
      "covered": "yes",
      "highway": "bus_stop",
      "lit": "yes",
      "name": "Asllan Rusi",
      "network": "Tirana Bus",
      "operator": "Bashkia Tiran\u00eb",
      "public_transport": "platform",
      "shelter": "yes",
      "tactile_paving": "no"
    }
  },
  {
    "type": "node",
    "id": 5297403653,
    "lat": 41.3353552,
    "lon": 19.7978766,
    "tags": {
      "bus": "yes",
      "source": "bing;mapbox-satellite;survey;knowledge;local-info;gps-track",
      "source_ref:url": "https://www.flickr.com/photos/openstreetmap-albania/",
      "tactile_paving": "no"
    }
  },
  {
    "type": "node",
    "id": 5297403654,
    "lat": 41.3354558,
    "lon": 19.7979519,
    "tags": {
      "bench": "yes",
      "bus": "yes",
      "covered": "yes",
      "highway": "bus_stop",
      "name": "Kupola",
      "network": "Tirana Bus",
      "operator": "Bashkia Tiran\u00eb",
      "public_transport": "platform",
      "tactile_paving": "no"
    }
  },
  {
    "type": "node",
    "id": 5297403651,
    "lat": 41.3370241,
    "lon": 19.7930822,
    "tags": {
      "bus": "yes",
      "source": "bing;mapbox-satellite;survey;knowledge;local-info;gps-track",
      "source_ref:url": "https://www.flickr.com/photos/openstreetmap-albania/",
      "tactile_paving": "no"
    }
  },
  {
    "type": "node",
    "id": 5297403652,
    "lat": 41.3371182,
    "lon": 19.7931382,
    "tags": {
      "bench": "yes",
      "bin": "no",
      "bus": "yes",
      "covered": "yes",
      "highway": "bus_stop",
      "lit": "no",
      "name": "Pallatet Arabe",
      "network": "Tirana Bus",
      "operator": "Bashkia Tiran\u00eb",
      "public_transport": "platform",
      "tactile_paving": "no"
    }
  },
  {
    "type": "node",
    "id": 5297403650,
    "lat": 41.3384667,
    "lon": 19.7850712,
    "tags": {
      "bench": "yes",
      "bin": "no",
      "bus": "yes",
      "highway": "bus_stop",
      "lit": "yes",
      "name": "Sheshi Shqiponja",
      "network": "Tirana Bus",
      "operator": "Bashkia Tiran\u00eb",
      "public_transport": "platform",
      "shelter": "no",
      "tactile_paving": "no"
    }
  },
  {
    "type": "node",
    "id": 5297403648,
    "lat": 41.3357053,
    "lon": 19.7830512,
    "tags": {
      "bench": "no",
      "bin": "no",
      "bus": "yes",
      "highway": "bus_stop",
      "lit": "yes",
      "name": "Lumi Lan\u00eb",
      "network": "Tirana Bus",
      "operator": "Bashkia Tiran\u00eb",
      "public_transport": "platform",
      "shelter": "no",
      "tactile_paving": "no"
    }
  },
  {
    "type": "node",
    "id": 5297403646,
    "lat": 41.3308593,
    "lon": 19.7841716,
    "tags": {
      "bench": "no",
      "bin": "no",
      "bus": "yes",
      "highway": "bus_stop",
      "lit": "yes",
      "name": "Kryq\u00ebzimi Kashar",
      "network": "Tirana Bus",
      "operator": "Bashkia Tiran\u00eb",
      "public_transport": "platform",
      "shelter": "no",
      "tactile_paving": "no"
    }
  },
  {
    "type": "node",
    "id": 5297486627,
    "lat": 41.3288971,
    "lon": 19.7851789,
    "tags": {
      "bus": "yes",
      "highway": "bus_stop",
      "name": "Nexho Konomi",
      "network": "Tirana Bus",
      "operator": "Bashkia Tiran\u00eb",
      "public_transport": "platform",
      "tactile_paving": "no"
    }
  },
  {
    "type": "node",
    "id": 5333386814,
    "lat": 41.3424705,
    "lon": 19.7761958,
    "tags": {
      "bench": "no",
      "bin": "no",
      "bus": "yes",
      "highway": "bus_stop",
      "lit": "yes",
      "name": "Kthesa Kamz\u00ebs",
      "network": "Tirana Bus",
      "operator": "Bashkia Tiran\u00eb",
      "public_transport": "platform",
      "shelter": "no",
      "tactile_paving": "no"
    }
  },
  {
    "type": "node",
    "id": 10909820605,
    "lat": 41.3435687,
    "lon": 19.7764342,
    "tags": {
      "bench": "yes",
      "bin": "no",
      "bus": "yes",
      "highway": "bus_stop",
      "lit": "yes",
      "name": "Kthesa Kamz\u00ebs",
      "network": "Tirana Bus",
      "operator": "Bashkia Tiran\u00eb",
      "public_transport": "platform",
      "shelter": "yes"
    }
  },
  {
    "type": "node",
    "id": 2932520496,
    "lat": 41.3435145,
    "lon": 19.7763199,
    "tags": {
      "bus": "yes"
    }
  },
  {
    "type": "node",
    "id": 5333386813,
    "lat": 41.3425068,
    "lon": 19.7762141,
    "tags": {
      "bus": "yes",
      "source": "bing;mapbox-satellite;survey;knowledge;local-info;gps-track",
      "source_ref:url": "https://www.flickr.com/photos/openstreetmap-albania/",
      "tactile_paving": "no"
    }
  },
  {
    "type": "node",
    "id": 10912660063,
    "lat": 41.3356991,
    "lon": 19.7831244,
    "tags": {
      "bus": "yes"
    }
  },
  {
    "type": "node",
    "id": 10912660065,
    "lat": 41.3308772,
    "lon": 19.7842179,
    "tags": {
      "bus": "yes"
    }
  },
  {
    "type": "node",
    "id": 10912660066,
    "lat": 41.328937,
    "lon": 19.7852509,
    "tags": {
      "bus": "yes"
    }
  },
  {
    "type": "node",
    "id": 6864410479,
    "lat": 41.3228267,
    "lon": 19.8199826,
    "tags": {
      "bus": "yes",
      "source": "bing;mapbox-satellite;survey;knowledge;local-info;gps-track",
      "source_ref:url": "https://www.flickr.com/photos/openstreetmap-albania/",
      "tactile_paving": "no"
    }
  },
  {
    "type": "node",
    "id": 9919674393,
    "lat": 41.3383984,
    "lon": 19.7852008,
    "tags": {
      "bus": "yes"
    }
  },
  {
    "type": "node",
    "id": 469773338,
    "lat": 51.3448249,
    "lon": -0.1466012,
    "tags": {
      "bus": "yes",
      "highway": "bus_stop",
      "local_ref": "S",
      "name": "Lordsbury Field",
      "naptan:AtcoCode": "490009358S",
      "naptan:Bearing": "S",
      "naptan:CommonName": "Lordsbury Field",
      "naptan:Indicator": "Stop S",
      "naptan:verified": "no",
      "public_transport": "platform"
    }
  },
  {
    "type": "node",
    "id": 11198606335,
    "lat": 41.3227133,
    "lon": 19.7887355,
    "tags": {
      "bench": "no",
      "bin": "no",
      "bus": "yes",
      "departures_board": "no",
      "fixme": "position changes frequently because of road construction -> set position when construction is done",
      "highway": "bus_stop",
      "lit": "yes",
      "name": "Teodor Keko",
      "network": "Tirana Bus",
      "operator": "Bashkia Tiran\u00eb",
      "public_transport": "platform",
      "shelter": "no",
      "waste_basket": "no"
    }
  },
  {
    "type": "node",
    "id": 11198606336,
    "lat": 41.322731,
    "lon": 19.7887937,
    "tags": {
      "bus": "yes"
    }
  },
  {
    "type": "node",
    "id": 5330787340,
    "lat": 41.3380713,
    "lon": 19.7904479,
    "tags": {
      "bench": "yes",
      "bin": "no",
      "bus": "yes",
      "highway": "bus_stop",
      "lit": "yes",
      "name": "Blloku Gintash",
      "network": "Tirana Bus",
      "operator": "Bashkia Tiran\u00eb",
      "public_transport": "platform",
      "shelter": "yes",
      "tactile_paving": "no"
    }
  },
  {
    "type": "node",
    "id": 5333329262,
    "lat": 41.3408931,
    "lon": 19.7824133,
    "tags": {
      "bench": "no",
      "bin": "no",
      "bus": "yes",
      "highway": "bus_stop",
      "lit": "no",
      "name": "Sheshi Shqiponja",
      "network": "Tirana Bus",
      "operator": "Bashkia Tiran\u00eb",
      "public_transport": "platform",
      "shelter": "no",
      "tactile_paving": "no"
    }
  },
  {
    "type": "node",
    "id": 11200941373,
    "lat": 41.3407608,
    "lon": 19.7823447,
    "tags": {
      "bus": "yes"
    }
  },
  {
    "additional_tags": {
      "from": "Materniteti",
      "interval": "15",
      "name": "Bus L13: Tirana e Re (Sensi Antiorar)",
      "network": "Tirana Bus",
      "operator": "Bashkia Tiran\u00eb",
      "public_transport:version": "2",
      "ref": "L13",
      "route": "bus",
      "to": "15 Kat\u00ebshi",
      "type": "route",
      "via": "Zogu i Zi"
    }
  }
]